{
  "type": "FeatureCollection",
  "features": [
    {
      "type": "Feature",
      "properties": {
        "featureclass": "Admin-1 capital",
        "name": "Colonia del Sacramento",
        "nameascii": "Colonia del Sacramento",
        "sov0name": "Uruguay",
        "adm0name": "Uruguay",
        "adm1name": "Colonia",
        "note": null,
        "timezone": null
      },
      "geometry": {
        "type": "Point",
        "coordinates": [
          -57.84000247340134,
          -34.47999900541754
        ]
      }
    },
    {
      "type": "Feature",
      "properties": {
        "featureclass": "Admin-1 capital",
        "name": "Trinidad",
        "nameascii": "Trinidad",
        "sov0name": "Uruguay",
        "adm0name": "Uruguay",
        "adm1name": "Flores",
        "note": null,
        "timezone": null
      },
      "geometry": {
        "type": "Point",
        "coordinates": [
          -56.90099656015872,
          -33.5439989373607
        ]
      }
    },
    {
      "type": "Feature",
      "properties": {
        "featureclass": "Admin-1 capital",
        "name": "Fray Bentos",
        "nameascii": "Fray Bentos",
        "sov0name": "Uruguay",
        "adm0name": "Uruguay",
        "adm1name": "Río Negro",
        "note": null,
        "timezone": null
      },
      "geometry": {
        "type": "Point",
        "coordinates": [
          -58.3039974719095,
          -33.1389990288435
        ]
      }
    },
    {
      "type": "Feature",
      "properties": {
        "featureclass": "Admin-1 capital",
        "name": "Canelones",
        "nameascii": "Canelones",
        "sov0name": "Uruguay",
        "adm0name": "Uruguay",
        "adm1name": "Canelones",
        "note": null,
        "timezone": null
      },
      "geometry": {
        "type": "Point",
        "coordinates": [
          -56.28400149324307,
          -34.538004006675465
        ]
      }
    },
    {
      "type": "Feature",
      "properties": {
        "featureclass": "Admin-1 capital",
        "name": "Florida",
        "nameascii": "Florida",
        "sov0name": "Uruguay",
        "adm0name": "Uruguay",
        "adm1name": "Florida",
        "note": null,
        "timezone": null
      },
      "geometry": {
        "type": "Point",
        "coordinates": [
          -56.21499844799416,
          -34.09900200521719
        ]
      }
    },
    {
      "type": "Feature",
      "properties": {
        "featureclass": "Admin-1 capital",
        "name": "Bassar",
        "nameascii": "Bassar",
        "sov0name": "Togo",
        "adm0name": "Togo",
        "adm1name": "Kara",
        "note": null,
        "timezone": null
      },
      "geometry": {
        "type": "Point",
        "coordinates": [
          0.789003573778132,
          9.26100006831723
        ]
      }
    },
    {
      "type": "Feature",
      "properties": {
        "featureclass": "Admin-1 capital",
        "name": "Sotouboua",
        "nameascii": "Sotouboua",
        "sov0name": "Togo",
        "adm0name": "Togo",
        "adm1name": "Centre",
        "note": null,
        "timezone": null
      },
      "geometry": {
        "type": "Point",
        "coordinates": [
          0.98499646233131,
          8.557002133057097
        ]
      }
    },
    {
      "type": "Feature",
      "properties": {
        "featureclass": "Admin-1 capital",
        "name": "Medenine",
        "nameascii": "Medemine",
        "sov0name": "Tunisia",
        "adm0name": "Tunisia",
        "adm1name": "Médenine",
        "note": null,
        "timezone": null
      },
      "geometry": {
        "type": "Point",
        "coordinates": [
          10.4166995575967,
          33.399999002467325
        ]
      }
    },
    {
      "type": "Feature",
      "properties": {
        "featureclass": "Admin-1 capital",
        "name": "Kebili",
        "nameascii": "Kebili",
        "sov0name": "Tunisia",
        "adm0name": "Tunisia",
        "adm1name": "Kebili",
        "note": null,
        "timezone": null
      },
      "geometry": {
        "type": "Point",
        "coordinates": [
          8.9710025379012,
          33.689997034920566
        ]
      }
    },
    {
      "type": "Feature",
      "properties": {
        "featureclass": "Admin-1 capital",
        "name": "Tataouine",
        "nameascii": "Tataouine",
        "sov0name": "Tunisia",
        "adm0name": "Tunisia",
        "adm1name": "Tataouine",
        "note": null,
        "timezone": null
      },
      "geometry": {
        "type": "Point",
        "coordinates": [
          10.466703589415545,
          33.00000315432084
        ]
      }
    },
    {
      "type": "Feature",
      "properties": {
        "featureclass": "Admin-1 capital",
        "name": "L'Ariana",
        "nameascii": "L'Ariana",
        "sov0name": "Tunisia",
        "adm0name": "Tunisia",
        "adm1name": "Manubah",
        "note": null,
        "timezone": null
      },
      "geometry": {
        "type": "Point",
        "coordinates": [
          10.199997547479256,
          36.866673153444935
        ]
      }
    },
    {
      "type": "Feature",
      "properties": {
        "featureclass": "Admin-1 capital",
        "name": "Jendouba",
        "nameascii": "Jendouba",
        "sov0name": "Tunisia",
        "adm0name": "Tunisia",
        "adm1name": "Jendouba",
        "note": null,
        "timezone": null
      },
      "geometry": {
        "type": "Point",
        "coordinates": [
          8.749998614579113,
          36.500004059426146
        ]
      }
    },
    {
      "type": "Feature",
      "properties": {
        "featureclass": "Admin-1 capital",
        "name": "Kasserine",
        "nameascii": "Kasserine",
        "sov0name": "Tunisia",
        "adm0name": "Tunisia",
        "adm1name": "Kassérine",
        "note": null,
        "timezone": null
      },
      "geometry": {
        "type": "Point",
        "coordinates": [
          8.716698503320458,
          35.216703104824205
        ]
      }
    },
    {
      "type": "Feature",
      "properties": {
        "featureclass": "Admin-1 capital",
        "name": "Sdid Bouzid",
        "nameascii": "Sdid Bouzid",
        "sov0name": "Tunisia",
        "adm0name": "Tunisia",
        "adm1name": "Sidi Bou Zid",
        "note": null,
        "timezone": null
      },
      "geometry": {
        "type": "Point",
        "coordinates": [
          9.500004482255633,
          35.01669607914971
        ]
      }
    },
    {
      "type": "Feature",
      "properties": {
        "featureclass": "Admin-1 capital",
        "name": "Siliana",
        "nameascii": "Siliana",
        "sov0name": "Tunisia",
        "adm0name": "Tunisia",
        "adm1name": "Siliana",
        "note": null,
        "timezone": null
      },
      "geometry": {
        "type": "Point",
        "coordinates": [
          9.383301599658637,
          36.083304125235486
        ]
      }
    },
    {
      "type": "Feature",
      "properties": {
        "featureclass": "Admin-1 capital",
        "name": "Mahdia",
        "nameascii": "Mahdia",
        "sov0name": "Tunisia",
        "adm0name": "Tunisia",
        "adm1name": "Mahdia",
        "note": null,
        "timezone": null
      },
      "geometry": {
        "type": "Point",
        "coordinates": [
          11.040876615321963,
          35.483913044502685
        ]
      }
    },
    {
      "type": "Feature",
      "properties": {
        "featureclass": "Admin-1 capital",
        "name": "Monastir",
        "nameascii": "Monasir",
        "sov0name": "Tunisia",
        "adm0name": "Tunisia",
        "adm1name": "Monastir",
        "note": null,
        "timezone": null
      },
      "geometry": {
        "type": "Point",
        "coordinates": [
          10.767294561862002,
          35.730702135151205
        ]
      }
    },
    {
      "type": "Feature",
      "properties": {
        "featureclass": "Admin-1 capital",
        "name": "Zaghouan",
        "nameascii": "Zaghouan",
        "sov0name": "Tunisia",
        "adm0name": "Tunisia",
        "adm1name": "Zaghouan",
        "note": null,
        "timezone": null
      },
      "geometry": {
        "type": "Point",
        "coordinates": [
          10.146996606592154,
          36.39999616127193
        ]
      }
    },
    {
      "type": "Feature",
      "properties": {
        "featureclass": "Admin-1 capital",
        "name": "Tay Ninh",
        "nameascii": "Tay Ninh",
        "sov0name": "Vietnam",
        "adm0name": "Vietnam",
        "adm1name": "Tây Ninh",
        "note": null,
        "timezone": null
      },
      "geometry": {
        "type": "Point",
        "coordinates": [
          106.14699968305416,
          11.322999109363707
        ]
      }
    },
    {
      "type": "Feature",
      "properties": {
        "featureclass": "Admin-1 capital",
        "name": "Luan Chau",
        "nameascii": "Luan Chau",
        "sov0name": "Vietnam",
        "adm0name": "Vietnam",
        "adm1name": "Ði?n Biên",
        "note": null,
        "timezone": null
      },
      "geometry": {
        "type": "Point",
        "coordinates": [
          103.34300467988777,
          21.740003991855076
        ]
      }
    },
    {
      "type": "Feature",
      "properties": {
        "featureclass": "Admin-1 capital",
        "name": "Bac Kan",
        "nameascii": "Bac Kan",
        "sov0name": "Vietnam",
        "adm0name": "Vietnam",
        "adm1name": "Ðông B?c",
        "note": null,
        "timezone": null
      },
      "geometry": {
        "type": "Point",
        "coordinates": [
          105.8333333000001,
          22.133333299999947
        ]
      }
    },
    {
      "type": "Feature",
      "properties": {
        "featureclass": "Admin-1 capital",
        "name": "Lang Son",
        "nameascii": "Lang Son",
        "sov0name": "Vietnam",
        "adm0name": "Vietnam",
        "adm1name": "L?ng Son",
        "note": null,
        "timezone": null
      },
      "geometry": {
        "type": "Point",
        "coordinates": [
          106.75700157601534,
          21.84599710299534
        ]
      }
    },
    {
      "type": "Feature",
      "properties": {
        "featureclass": "Admin-1 capital",
        "name": "Son La",
        "nameascii": "Son La",
        "sov0name": "Vietnam",
        "adm0name": "Vietnam",
        "adm1name": "Son La",
        "note": null,
        "timezone": null
      },
      "geometry": {
        "type": "Point",
        "coordinates": [
          103.91000465110193,
          21.328002138749298
        ]
      }
    },
    {
      "type": "Feature",
      "properties": {
        "featureclass": "Admin-1 capital",
        "name": "Tuyen Quang",
        "nameascii": "Tuyen Quang",
        "sov0name": "Vietnam",
        "adm0name": "Vietnam",
        "adm1name": "Tuyên Quang",
        "note": null,
        "timezone": null
      },
      "geometry": {
        "type": "Point",
        "coordinates": [
          105.21099961499738,
          21.817998095275925
        ]
      }
    },
    {
      "type": "Feature",
      "properties": {
        "featureclass": "Admin-1 capital",
        "name": "Yen Bai",
        "nameascii": "Yen Bai",
        "sov0name": "Vietnam",
        "adm0name": "Vietnam",
        "adm1name": "Yên Bái",
        "note": null,
        "timezone": null
      },
      "geometry": {
        "type": "Point",
        "coordinates": [
          104.87500258624527,
          21.70500303954708
        ]
      }
    },
    {
      "type": "Feature",
      "properties": {
        "featureclass": "Admin-1 capital",
        "name": "Hai Duong",
        "nameascii": "Hai Duong",
        "sov0name": "Vietnam",
        "adm0name": "Vietnam",
        "adm1name": "H?i Duong",
        "note": null,
        "timezone": null
      },
      "geometry": {
        "type": "Point",
        "coordinates": [
          106.33100460436708,
          20.94200107817835
        ]
      }
    },
    {
      "type": "Feature",
      "properties": {
        "featureclass": "Admin-1 capital",
        "name": "Thai Binh",
        "nameascii": "Thai Binh",
        "sov0name": "Vietnam",
        "adm0name": "Vietnam",
        "adm1name": "Thái Bình",
        "note": null,
        "timezone": null
      },
      "geometry": {
        "type": "Point",
        "coordinates": [
          106.33302962790475,
          20.45030411511891
        ]
      }
    },
    {
      "type": "Feature",
      "properties": {
        "featureclass": "Admin-1 capital",
        "name": "Tuy Hoa",
        "nameascii": "Tuy Hoa",
        "sov0name": "Vietnam",
        "adm0name": "Vietnam",
        "adm1name": "Phú Yên",
        "note": null,
        "timezone": null
      },
      "geometry": {
        "type": "Point",
        "coordinates": [
          109.31599868366044,
          13.082004024264734
        ]
      }
    },
    {
      "type": "Feature",
      "properties": {
        "featureclass": "Admin-1 capital",
        "name": "Thu Dau Mot",
        "nameascii": "Thu Dau Mot",
        "sov0name": "Vietnam",
        "adm0name": "Vietnam",
        "adm1name": "Bình Duong",
        "note": null,
        "timezone": null
      },
      "geometry": {
        "type": "Point",
        "coordinates": [
          106.65274554684555,
          10.969074077424182
        ]
      }
    },
    {
      "type": "Feature",
      "properties": {
        "featureclass": "Admin-1 capital",
        "name": "Dong Ha",
        "nameascii": "Dong Ha",
        "sov0name": "Vietnam",
        "adm0name": "Vietnam",
        "adm1name": "Qu?ng Tr?",
        "note": null,
        "timezone": null
      },
      "geometry": {
        "type": "Point",
        "coordinates": [
          107.13330066061451,
          16.849998103207497
        ]
      }
    },
    {
      "type": "Feature",
      "properties": {
        "featureclass": "Admin-1 capital",
        "name": "Cao Lanh",
        "nameascii": "Cao Lanh",
        "sov0name": "Vietnam",
        "adm0name": "Vietnam",
        "adm1name": "Ð?ng Tháp",
        "note": null,
        "timezone": null
      },
      "geometry": {
        "type": "Point",
        "coordinates": [
          105.63599756179525,
          10.46700013054675
        ]
      }
    },
    {
      "type": "Feature",
      "properties": {
        "featureclass": "Admin-1 capital",
        "name": "Truc Giang",
        "nameascii": "Truc Giang",
        "sov0name": "Vietnam",
        "adm0name": "Vietnam",
        "adm1name": "B?n Tre",
        "note": null,
        "timezone": null
      },
      "geometry": {
        "type": "Point",
        "coordinates": [
          106.37499661484685,
          10.234997997750156
        ]
      }
    },
    {
      "type": "Feature",
      "properties": {
        "featureclass": "Admin-1 capital",
        "name": "Tra Vinh",
        "nameascii": "Tra Vinh",
        "sov0name": "Vietnam",
        "adm0name": "Vietnam",
        "adm1name": "Trà Vinh",
        "note": null,
        "timezone": null
      },
      "geometry": {
        "type": "Point",
        "coordinates": [
          106.33400167891898,
          9.93400208678969
        ]
      }
    },
    {
      "type": "Feature",
      "properties": {
        "featureclass": "Admin-1 capital",
        "name": "Vinh Long",
        "nameascii": "Vinh Long",
        "sov0name": "Vietnam",
        "adm0name": "Vietnam",
        "adm1name": "Vinh Long",
        "note": null,
        "timezone": null
      },
      "geometry": {
        "type": "Point",
        "coordinates": [
          105.9640025572258,
          10.25600399699897
        ]
      }
    },
    {
      "type": "Feature",
      "properties": {
        "featureclass": "Admin-1 capital",
        "name": "Cao Bang",
        "nameascii": "Cao Bang",
        "sov0name": "Vietnam",
        "adm0name": "Vietnam",
        "adm1name": "Cao B?ng",
        "note": null,
        "timezone": null
      },
      "geometry": {
        "type": "Point",
        "coordinates": [
          106.26800464433961,
          22.66399805495257
        ]
      }
    },
    {
      "type": "Feature",
      "properties": {
        "featureclass": "Admin-1 capital",
        "name": "Yoro",
        "nameascii": "Yoro",
        "sov0name": "Honduras",
        "adm0name": "Honduras",
        "adm1name": "Yoro",
        "note": null,
        "timezone": null
      },
      "geometry": {
        "type": "Point",
        "coordinates": [
          -87.29000053844396,
          15.059997106034928
        ]
      }
    },
    {
      "type": "Feature",
      "properties": {
        "featureclass": "Admin-1 capital",
        "name": "La Esperanza",
        "nameascii": "La Esperanza",
        "sov0name": "Honduras",
        "adm0name": "Honduras",
        "adm1name": "Intibucá",
        "note": null,
        "timezone": null
      },
      "geometry": {
        "type": "Point",
        "coordinates": [
          -88.16669953722379,
          14.33300405794239
        ]
      }
    },
    {
      "type": "Feature",
      "properties": {
        "featureclass": "Admin-1 capital",
        "name": "La Paz",
        "nameascii": "La Paz",
        "sov0name": "Honduras",
        "adm0name": "Honduras",
        "adm1name": "La Paz",
        "note": null,
        "timezone": null
      },
      "geometry": {
        "type": "Point",
        "coordinates": [
          -87.68400256845393,
          14.319999028132543
        ]
      }
    },
    {
      "type": "Feature",
      "properties": {
        "featureclass": "Admin-1 capital",
        "name": "Santa Barbara",
        "nameascii": "Santa Barbara",
        "sov0name": "Honduras",
        "adm0name": "Honduras",
        "adm1name": "Santa Bárbara",
        "note": null,
        "timezone": null
      },
      "geometry": {
        "type": "Point",
        "coordinates": [
          -88.235999625641,
          14.91900304258661
        ]
      }
    },
    {
      "type": "Feature",
      "properties": {
        "featureclass": "Admin-1 capital",
        "name": "Gracias",
        "nameascii": "Gracias",
        "sov0name": "Honduras",
        "adm0name": "Honduras",
        "adm1name": "Lempira",
        "note": null,
        "timezone": null
      },
      "geometry": {
        "type": "Point",
        "coordinates": [
          -88.58330051218616,
          14.583303057002922
        ]
      }
    },
    {
      "type": "Feature",
      "properties": {
        "featureclass": "Admin-1 capital",
        "name": "Nueva Ocotepeque",
        "nameascii": "Nueva Ocotepeque",
        "sov0name": "Honduras",
        "adm0name": "Honduras",
        "adm1name": "Ocotepeque",
        "note": null,
        "timezone": null
      },
      "geometry": {
        "type": "Point",
        "coordinates": [
          -89.18199854735434,
          14.43699911938154
        ]
      }
    },
    {
      "type": "Feature",
      "properties": {
        "featureclass": "Admin-1 capital",
        "name": "Yuscaran",
        "nameascii": "Yuscaran",
        "sov0name": "Honduras",
        "adm0name": "Honduras",
        "adm1name": "El Paraíso",
        "note": null,
        "timezone": null
      },
      "geometry": {
        "type": "Point",
        "coordinates": [
          -86.8509985369858,
          13.943996986701904
        ]
      }
    },
    {
      "type": "Feature",
      "properties": {
        "featureclass": "Admin-1 capital",
        "name": "Jeremie",
        "nameascii": "Jeremie",
        "sov0name": "Haiti",
        "adm0name": "Haiti",
        "adm1name": "Grand'Anse",
        "note": null,
        "timezone": null
      },
      "geometry": {
        "type": "Point",
        "coordinates": [
          -74.11842526340854,
          18.63393472721964
        ]
      }
    },
    {
      "type": "Feature",
      "properties": {
        "featureclass": "Admin-1 capital",
        "name": "Port-De-Paix",
        "nameascii": "Port-De-Paix",
        "sov0name": "Haiti",
        "adm0name": "Haiti",
        "adm1name": "Nord-Ouest",
        "note": null,
        "timezone": null
      },
      "geometry": {
        "type": "Point",
        "coordinates": [
          -72.8294845231228,
          19.93176007609145
        ]
      }
    },
    {
      "type": "Feature",
      "properties": {
        "featureclass": "Admin-1 capital",
        "name": "Hinche",
        "nameascii": "Hinche",
        "sov0name": "Haiti",
        "adm0name": "Haiti",
        "adm1name": "Centre",
        "note": null,
        "timezone": null
      },
      "geometry": {
        "type": "Point",
        "coordinates": [
          -72.00399560107024,
          19.1430000867162
        ]
      }
    },
    {
      "type": "Feature",
      "properties": {
        "featureclass": "Admin-1 capital",
        "name": "Fort-Liberte",
        "nameascii": "Fort-Liberte",
        "sov0name": "Haiti",
        "adm0name": "Haiti",
        "adm1name": "Nord-Est",
        "note": null,
        "timezone": null
      },
      "geometry": {
        "type": "Point",
        "coordinates": [
          -71.8448395405403,
          19.66556703349886
        ]
      }
    },
    {
      "type": "Feature",
      "properties": {
        "featureclass": "Admin-1 capital",
        "name": "Jacmel",
        "nameascii": "Jacmel",
        "sov0name": "Haiti",
        "adm0name": "Haiti",
        "adm1name": "Sud-Est",
        "note": null,
        "timezone": null
      },
      "geometry": {
        "type": "Point",
        "coordinates": [
          -72.53700258094494,
          18.234999026379057
        ]
      }
    },
    {
      "type": "Feature",
      "properties": {
        "featureclass": "Admin-1 capital",
        "name": "Kirklareli",
        "nameascii": "Kirklareli",
        "sov0name": "Turkey",
        "adm0name": "Turkey",
        "adm1name": "Kirklareli",
        "note": null,
        "timezone": null
      },
      "geometry": {
        "type": "Point",
        "coordinates": [
          27.225999615690228,
          41.74299916992038
        ]
      }
    },
    {
      "type": "Feature",
      "properties": {
        "featureclass": "Admin-1 capital",
        "name": "Bilecik",
        "nameascii": "Bilecik",
        "sov0name": "Turkey",
        "adm0name": "Turkey",
        "adm1name": "Bilecik",
        "note": null,
        "timezone": null
      },
      "geometry": {
        "type": "Point",
        "coordinates": [
          29.982996597707256,
          40.149999022269185
        ]
      }
    },
    {
      "type": "Feature",
      "properties": {
        "featureclass": "Admin-1 capital",
        "name": "Sakarya",
        "nameascii": "Sakarya",
        "sov0name": "Turkey",
        "adm0name": "Turkey",
        "adm1name": "Sakarya",
        "note": null,
        "timezone": null
      },
      "geometry": {
        "type": "Point",
        "coordinates": [
          30.400002511183743,
          40.76666113606262
        ]
      }
    },
    {
      "type": "Feature",
      "properties": {
        "featureclass": "Admin-1 capital",
        "name": "Kastamonu",
        "nameascii": "Kastamonu",
        "sov0name": "Turkey",
        "adm0name": "Turkey",
        "adm1name": "Kastamonu",
        "note": null,
        "timezone": null
      },
      "geometry": {
        "type": "Point",
        "coordinates": [
          33.78300349052358,
          41.389002152589
        ]
      }
    },
    {
      "type": "Feature",
      "properties": {
        "featureclass": "Admin-1 capital",
        "name": "Burdur",
        "nameascii": "Burdur",
        "sov0name": "Turkey",
        "adm0name": "Turkey",
        "adm1name": "Burdur",
        "note": null,
        "timezone": null
      },
      "geometry": {
        "type": "Point",
        "coordinates": [
          30.28333553854071,
          37.71666011092282
        ]
      }
    },
    {
      "type": "Feature",
      "properties": {
        "featureclass": "Admin-1 capital",
        "name": "Kirsehir",
        "nameascii": "Kirsehir",
        "sov0name": "Turkey",
        "adm0name": "Turkey",
        "adm1name": "Kirsehir",
        "note": null,
        "timezone": null
      },
      "geometry": {
        "type": "Point",
        "coordinates": [
          34.17100260079587,
          39.14199916537905
        ]
      }
    },
    {
      "type": "Feature",
      "properties": {
        "featureclass": "Admin-1 capital",
        "name": "Nevsehir",
        "nameascii": "Nevsehir",
        "sov0name": "Turkey",
        "adm0name": "Turkey",
        "adm1name": "Nevsehir",
        "note": null,
        "timezone": null
      },
      "geometry": {
        "type": "Point",
        "coordinates": [
          34.72399851734997,
          38.62400403564931
        ]
      }
    },
    {
      "type": "Feature",
      "properties": {
        "featureclass": "Admin-1 capital",
        "name": "Antioch",
        "nameascii": "Antioch",
        "sov0name": "Turkey",
        "adm0name": "Turkey",
        "adm1name": "Hatay",
        "note": null,
        "timezone": null
      },
      "geometry": {
        "type": "Point",
        "coordinates": [
          36.116676558439394,
          36.233334092927635
        ]
      }
    },
    {
      "type": "Feature",
      "properties": {
        "featureclass": "Admin-1 capital",
        "name": "Giresun",
        "nameascii": "Giresun",
        "sov0name": "Turkey",
        "adm0name": "Turkey",
        "adm1name": "Giresun",
        "note": null,
        "timezone": null
      },
      "geometry": {
        "type": "Point",
        "coordinates": [
          38.390004520672335,
          40.913001149121726
        ]
      }
    },
    {
      "type": "Feature",
      "properties": {
        "featureclass": "Admin-1 capital",
        "name": "Sinop",
        "nameascii": "Sinop",
        "sov0name": "Turkey",
        "adm0name": "Turkey",
        "adm1name": "Sinop",
        "note": null,
        "timezone": null
      },
      "geometry": {
        "type": "Point",
        "coordinates": [
          35.15300149966771,
          42.02299801774967
        ]
      }
    },
    {
      "type": "Feature",
      "properties": {
        "featureclass": "Admin-1 capital",
        "name": "Tokat",
        "nameascii": "Tokat",
        "sov0name": "Turkey",
        "adm0name": "Turkey",
        "adm1name": "Tokat",
        "note": null,
        "timezone": null
      },
      "geometry": {
        "type": "Point",
        "coordinates": [
          36.5630045214906,
          40.305996165228464
        ]
      }
    },
    {
      "type": "Feature",
      "properties": {
        "featureclass": "Admin-1 capital",
        "name": "Artvin",
        "nameascii": "Coruh",
        "sov0name": "Turkey",
        "adm0name": "Turkey",
        "adm1name": "Artvin",
        "note": null,
        "timezone": null
      },
      "geometry": {
        "type": "Point",
        "coordinates": [
          41.8179965353429,
          41.18300114329429
        ]
      }
    },
    {
      "type": "Feature",
      "properties": {
        "featureclass": "Admin-1 capital",
        "name": "Bingol",
        "nameascii": "Bingol",
        "sov0name": "Turkey",
        "adm0name": "Turkey",
        "adm1name": "Bingöl",
        "note": null,
        "timezone": null
      },
      "geometry": {
        "type": "Point",
        "coordinates": [
          40.49800255801756,
          38.88500403553252
        ]
      }
    },
    {
      "type": "Feature",
      "properties": {
        "featureclass": "Admin-1 capital",
        "name": "Bitlis",
        "nameascii": "Bitlis",
        "sov0name": "Turkey",
        "adm0name": "Turkey",
        "adm1name": "Bitlis",
        "note": null,
        "timezone": null
      },
      "geometry": {
        "type": "Point",
        "coordinates": [
          42.1229976473071,
          38.394000118037695
        ]
      }
    },
    {
      "type": "Feature",
      "properties": {
        "featureclass": "Admin-1 capital",
        "name": "Kalangala",
        "nameascii": "Kalangala",
        "sov0name": "Uganda",
        "adm0name": "Uganda",
        "adm1name": "Kalangala",
        "note": null,
        "timezone": null
      },
      "geometry": {
        "type": "Point",
        "coordinates": [
          32.225000000000136,
          -0.308888899999886
        ]
      }
    },
    {
      "type": "Feature",
      "properties": {
        "featureclass": "Admin-1 capital",
        "name": "Cankiri",
        "nameascii": "Cankiri",
        "sov0name": "Turkey",
        "adm0name": "Turkey",
        "adm1name": "Çankiri",
        "note": null,
        "timezone": null
      },
      "geometry": {
        "type": "Point",
        "coordinates": [
          33.621003593310206,
          40.60700101230674
        ]
      }
    },
    {
      "type": "Feature",
      "properties": {
        "featureclass": "Admin-1 capital",
        "name": "Nigde",
        "nameascii": "Nigde",
        "sov0name": "Turkey",
        "adm0name": "Turkey",
        "adm1name": "Nigde",
        "note": null,
        "timezone": null
      },
      "geometry": {
        "type": "Point",
        "coordinates": [
          34.694001625412795,
          37.97600411582823
        ]
      }
    },
    {
      "type": "Feature",
      "properties": {
        "featureclass": "Admin-1 capital",
        "name": "Yozgat",
        "nameascii": "Yozgat",
        "sov0name": "Turkey",
        "adm0name": "Turkey",
        "adm1name": "Yozgat",
        "note": null,
        "timezone": null
      },
      "geometry": {
        "type": "Point",
        "coordinates": [
          34.81499748509685,
          39.817998092919765
        ]
      }
    },
    {
      "type": "Feature",
      "properties": {
        "featureclass": "Admin-1 capital",
        "name": "Gumushane",
        "nameascii": "Gumushane",
        "sov0name": "Turkey",
        "adm0name": "Turkey",
        "adm1name": "Gümüshane",
        "note": null,
        "timezone": null
      },
      "geometry": {
        "type": "Point",
        "coordinates": [
          39.48399961590593,
          40.46400012852314
        ]
      }
    },
    {
      "type": "Feature",
      "properties": {
        "featureclass": "Admin-1 capital",
        "name": "Siirt",
        "nameascii": "Siirt",
        "sov0name": "Turkey",
        "adm0name": "Turkey",
        "adm1name": "Siirt",
        "note": null,
        "timezone": null
      },
      "geometry": {
        "type": "Point",
        "coordinates": [
          41.9329985768905,
          37.944000072588665
        ]
      }
    },
    {
      "type": "Feature",
      "properties": {
        "featureclass": "Admin-1 capital",
        "name": "Tunceli",
        "nameascii": "Tunceli",
        "sov0name": "Turkey",
        "adm0name": "Turkey",
        "adm1name": "Tunceli",
        "note": null,
        "timezone": null
      },
      "geometry": {
        "type": "Point",
        "coordinates": [
          39.53330150055899,
          39.11670002355953
        ]
      }
    },
    {
      "type": "Feature",
      "properties": {
        "featureclass": "Admin-1 capital",
        "name": "Kumi",
        "nameascii": "Kumi",
        "sov0name": "Uganda",
        "adm0name": "Uganda",
        "adm1name": "Kumi",
        "note": null,
        "timezone": null
      },
      "geometry": {
        "type": "Point",
        "coordinates": [
          33.9361111,
          1.460833300000104
        ]
      }
    },
    {
      "type": "Feature",
      "properties": {
        "featureclass": "Admin-1 capital",
        "name": "Kaberamaido",
        "nameascii": "Kaberamaido",
        "sov0name": "Uganda",
        "adm0name": "Uganda",
        "adm1name": "Kaberamaido",
        "note": null,
        "timezone": null
      },
      "geometry": {
        "type": "Point",
        "coordinates": [
          33.15944439999993,
          1.738888900000063
        ]
      }
    },
    {
      "type": "Feature",
      "properties": {
        "featureclass": "Admin-1 capital",
        "name": "Kayunga",
        "nameascii": "Kayunga",
        "sov0name": "Uganda",
        "adm0name": "Uganda",
        "adm1name": "Kayunga",
        "note": null,
        "timezone": null
      },
      "geometry": {
        "type": "Point",
        "coordinates": [
          32.88861110000005,
          0.7025
        ]
      }
    },
    {
      "type": "Feature",
      "properties": {
        "featureclass": "Admin-1 capital",
        "name": "Iganga",
        "nameascii": "Iganga",
        "sov0name": "Uganda",
        "adm0name": "Uganda",
        "adm1name": "Iganga",
        "note": null,
        "timezone": null
      },
      "geometry": {
        "type": "Point",
        "coordinates": [
          33.46861110000009,
          0.60916670000006
        ]
      }
    },
    {
      "type": "Feature",
      "properties": {
        "featureclass": "Admin-1 capital",
        "name": "Kamuli",
        "nameascii": "Kamuli",
        "sov0name": "Uganda",
        "adm0name": "Uganda",
        "adm1name": "Kamuli",
        "note": null,
        "timezone": null
      },
      "geometry": {
        "type": "Point",
        "coordinates": [
          33.119722200000126,
          0.947222200000056
        ]
      }
    },
    {
      "type": "Feature",
      "properties": {
        "featureclass": "Admin-1 capital",
        "name": "Pallisa",
        "nameascii": "Pallisa",
        "sov0name": "Uganda",
        "adm0name": "Uganda",
        "adm1name": "Pallisa",
        "note": null,
        "timezone": null
      },
      "geometry": {
        "type": "Point",
        "coordinates": [
          33.70944440000011,
          1.145
        ]
      }
    },
    {
      "type": "Feature",
      "properties": {
        "featureclass": "Admin-1 capital",
        "name": "Mpigi",
        "nameascii": "Mpigi",
        "sov0name": "Uganda",
        "adm0name": "Uganda",
        "adm1name": "Mpigi",
        "note": null,
        "timezone": null
      },
      "geometry": {
        "type": "Point",
        "coordinates": [
          32.31361110000012,
          0.225000000000136
        ]
      }
    },
    {
      "type": "Feature",
      "properties": {
        "featureclass": "Admin-1 capital",
        "name": "Adjumani",
        "nameascii": "Adjumani",
        "sov0name": "Uganda",
        "adm0name": "Uganda",
        "adm1name": "Adjumani",
        "note": null,
        "timezone": null
      },
      "geometry": {
        "type": "Point",
        "coordinates": [
          31.809722199999953,
          3.361388900000065
        ]
      }
    },
    {
      "type": "Feature",
      "properties": {
        "featureclass": "Admin-1 capital",
        "name": "Nebbi",
        "nameascii": "Nebbi",
        "sov0name": "Uganda",
        "adm0name": "Uganda",
        "adm1name": "Nebbi",
        "note": null,
        "timezone": null
      },
      "geometry": {
        "type": "Point",
        "coordinates": [
          31.1025,
          2.475833300000033
        ]
      }
    },
    {
      "type": "Feature",
      "properties": {
        "featureclass": "Admin-1 capital",
        "name": "Kiboga",
        "nameascii": "Kiboga",
        "sov0name": "Uganda",
        "adm0name": "Uganda",
        "adm1name": "Kiboga",
        "note": null,
        "timezone": null
      },
      "geometry": {
        "type": "Point",
        "coordinates": [
          31.77416670000008,
          0.916111100000023
        ]
      }
    },
    {
      "type": "Feature",
      "properties": {
        "featureclass": "Admin-1 capital",
        "name": "Nakasongola",
        "nameascii": "Nakasongola",
        "sov0name": "Uganda",
        "adm0name": "Uganda",
        "adm1name": "Nakasongola",
        "note": null,
        "timezone": null
      },
      "geometry": {
        "type": "Point",
        "coordinates": [
          32.45638889999992,
          1.3088889
        ]
      }
    },
    {
      "type": "Feature",
      "properties": {
        "featureclass": "Admin-1 region capital",
        "name": "Bombo",
        "nameascii": "Bombo",
        "sov0name": "Uganda",
        "adm0name": "Uganda",
        "adm1name": "Bamunanika",
        "note": null,
        "timezone": null
      },
      "geometry": {
        "type": "Point",
        "coordinates": [
          32.533299524864844,
          0.583299105614628
        ]
      }
    },
    {
      "type": "Feature",
      "properties": {
        "featureclass": "Admin-1 capital",
        "name": "Masindi",
        "nameascii": "Masindi",
        "sov0name": "Uganda",
        "adm0name": "Uganda",
        "adm1name": "Masindi",
        "note": null,
        "timezone": null
      },
      "geometry": {
        "type": "Point",
        "coordinates": [
          31.715,
          1.674444400000141
        ]
      }
    },
    {
      "type": "Feature",
      "properties": {
        "featureclass": "Admin-1 region capital",
        "name": "Fort Portal",
        "nameascii": "Fort Portal",
        "sov0name": "Uganda",
        "adm0name": "Uganda",
        "adm1name": "Kabarole",
        "note": null,
        "timezone": null
      },
      "geometry": {
        "type": "Point",
        "coordinates": [
          30.27500161597942,
          0.671004121125236
        ]
      }
    },
    {
      "type": "Feature",
      "properties": {
        "featureclass": "Admin-1 capital",
        "name": "Kibale",
        "nameascii": "Kibale",
        "sov0name": "Uganda",
        "adm0name": "Uganda",
        "adm1name": "Kibale",
        "note": null,
        "timezone": null
      },
      "geometry": {
        "type": "Point",
        "coordinates": [
          31.06666670000004,
          0.8
        ]
      }
    },
    {
      "type": "Feature",
      "properties": {
        "featureclass": "Admin-1 capital",
        "name": "Sironko",
        "nameascii": "Sironko",
        "sov0name": "Uganda",
        "adm0name": "Uganda",
        "adm1name": "Budadiri",
        "note": null,
        "timezone": null
      },
      "geometry": {
        "type": "Point",
        "coordinates": [
          34.300000000000125,
          1.25
        ]
      }
    },
    {
      "type": "Feature",
      "properties": {
        "featureclass": "Admin-1 capital",
        "name": "Busia",
        "nameascii": "Busia",
        "sov0name": "Uganda",
        "adm0name": "Uganda",
        "adm1name": "Busia",
        "note": null,
        "timezone": null
      },
      "geometry": {
        "type": "Point",
        "coordinates": [
          34.07583330000011,
          0.454444399999943
        ]
      }
    },
    {
      "type": "Feature",
      "properties": {
        "featureclass": "Admin-1 capital",
        "name": "Katakwi",
        "nameascii": "Katakwi",
        "sov0name": "Uganda",
        "adm0name": "Uganda",
        "adm1name": "Usuk",
        "note": null,
        "timezone": null
      },
      "geometry": {
        "type": "Point",
        "coordinates": [
          33.96611110000009,
          1.891111100000046
        ]
      }
    },
    {
      "type": "Feature",
      "properties": {
        "featureclass": "Admin-1 capital",
        "name": "Veszprem",
        "nameascii": "Veszprem",
        "sov0name": "Hungary",
        "adm0name": "Hungary",
        "adm1name": "Veszprém",
        "note": null,
        "timezone": null
      },
      "geometry": {
        "type": "Point",
        "coordinates": [
          17.910999568505588,
          47.09099713733832
        ]
      }
    },
    {
      "type": "Feature",
      "properties": {
        "featureclass": "Admin-1 capital",
        "name": "Zalaegerszeg",
        "nameascii": "Zalaegerszeg",
        "sov0name": "Hungary",
        "adm0name": "Hungary",
        "adm1name": "Zala",
        "note": null,
        "timezone": null
      },
      "geometry": {
        "type": "Point",
        "coordinates": [
          16.83999958610434,
          46.844001026631986
        ]
      }
    },
    {
      "type": "Feature",
      "properties": {
        "featureclass": "Admin-1 capital",
        "name": "Tatabanya",
        "nameascii": "Tatabanya",
        "sov0name": "Hungary",
        "adm0name": "Hungary",
        "adm1name": "Komárom-Esztergom",
        "note": null,
        "timezone": null
      },
      "geometry": {
        "type": "Point",
        "coordinates": [
          18.432999568271782,
          47.5499971770771
        ]
      }
    },
    {
      "type": "Feature",
      "properties": {
        "featureclass": "Admin-1 capital",
        "name": "Szekszard",
        "nameascii": "Szekszard",
        "sov0name": "Hungary",
        "adm0name": "Hungary",
        "adm1name": "Tolna",
        "note": null,
        "timezone": null
      },
      "geometry": {
        "type": "Point",
        "coordinates": [
          18.712998581584827,
          46.34399711484775
        ]
      }
    },
    {
      "type": "Feature",
      "properties": {
        "featureclass": "Admin-1 capital",
        "name": "Salgotarjan",
        "nameascii": "Salgotarjan",
        "sov0name": "Hungary",
        "adm0name": "Hungary",
        "adm1name": "Nógrád",
        "note": null,
        "timezone": null
      },
      "geometry": {
        "type": "Point",
        "coordinates": [
          19.82600162636612,
          48.10500007944995
        ]
      }
    },
    {
      "type": "Feature",
      "properties": {
        "featureclass": "Admin-1 capital",
        "name": "Bekescsaba",
        "nameascii": "Bekescsaba",
        "sov0name": "Hungary",
        "adm0name": "Hungary",
        "adm1name": "Békés",
        "note": null,
        "timezone": null
      },
      "geometry": {
        "type": "Point",
        "coordinates": [
          21.101004568360736,
          46.6720021102783
        ]
      }
    },
    {
      "type": "Feature",
      "properties": {
        "featureclass": "Admin-1 capital",
        "name": "Eger",
        "nameascii": "Eger",
        "sov0name": "Hungary",
        "adm0name": "Hungary",
        "adm1name": "Heves",
        "note": null,
        "timezone": null
      },
      "geometry": {
        "type": "Point",
        "coordinates": [
          20.38300257844014,
          47.89500313623637
        ]
      }
    },
    {
      "type": "Feature",
      "properties": {
        "featureclass": "Admin-1 capital",
        "name": "Ntungamo",
        "nameascii": "Ntungamo",
        "sov0name": "Uganda",
        "adm0name": "Uganda",
        "adm1name": "Ntungamo",
        "note": null,
        "timezone": null
      },
      "geometry": {
        "type": "Point",
        "coordinates": [
          30.26416670000009,
          -0.879444400000011
        ]
      }
    },
    {
      "type": "Feature",
      "properties": {
        "featureclass": "Admin-1 capital",
        "name": "Kisoro",
        "nameascii": "Kisoro",
        "sov0name": "Uganda",
        "adm0name": "Uganda",
        "adm1name": "Kisoro",
        "note": null,
        "timezone": null
      },
      "geometry": {
        "type": "Point",
        "coordinates": [
          29.698333300000115,
          -1.353888900000015
        ]
      }
    },
    {
      "type": "Feature",
      "properties": {
        "featureclass": "Admin-1 capital",
        "name": "Gikongoro",
        "nameascii": "Gikongoro",
        "sov0name": "Rwanda",
        "adm0name": "Rwanda",
        "adm1name": "Southern",
        "note": null,
        "timezone": null
      },
      "geometry": {
        "type": "Point",
        "coordinates": [
          29.566701602030776,
          -2.483297944739661
        ]
      }
    },
    {
      "type": "Feature",
      "properties": {
        "featureclass": "Admin-1 capital",
        "name": "Kibuye",
        "nameascii": "Kibuye",
        "sov0name": "Rwanda",
        "adm0name": "Rwanda",
        "adm1name": "Western",
        "note": null,
        "timezone": null
      },
      "geometry": {
        "type": "Point",
        "coordinates": [
          29.34999959191356,
          -2.050001985334575
        ]
      }
    },
    {
      "type": "Feature",
      "properties": {
        "featureclass": "Admin-1 capital",
        "name": "Kibungo",
        "nameascii": "Kibungo",
        "sov0name": "Rwanda",
        "adm0name": "Rwanda",
        "adm1name": "Eastern",
        "note": null,
        "timezone": null
      },
      "geometry": {
        "type": "Point",
        "coordinates": [
          30.533301584478863,
          -2.16669593181399
        ]
      }
    },
    {
      "type": "Feature",
      "properties": {
        "featureclass": "Admin-1 capital",
        "name": "Targu Jiu",
        "nameascii": "Targu Jiu",
        "sov0name": "Romania",
        "adm0name": "Romania",
        "adm1name": "Gorj",
        "note": null,
        "timezone": null
      },
      "geometry": {
        "type": "Point",
        "coordinates": [
          23.274000615434716,
          45.045000035170006
        ]
      }
    },
    {
      "type": "Feature",
      "properties": {
        "featureclass": "Admin-1 capital",
        "name": "Slatina",
        "nameascii": "Slatina",
        "sov0name": "Romania",
        "adm0name": "Romania",
        "adm1name": "Olt",
        "note": null,
        "timezone": null
      },
      "geometry": {
        "type": "Point",
        "coordinates": [
          24.371001555854207,
          44.434998142208656
        ]
      }
    },
    {
      "type": "Feature",
      "properties": {
        "featureclass": "Admin-1 capital",
        "name": "Alexandria",
        "nameascii": "Alexandria",
        "sov0name": "Romania",
        "adm0name": "Romania",
        "adm1name": "Teleorman",
        "note": null,
        "timezone": null
      },
      "geometry": {
        "type": "Point",
        "coordinates": [
          25.286706542462184,
          43.90163106989155
        ]
      }
    },
    {
      "type": "Feature",
      "properties": {
        "featureclass": "Admin-1 capital",
        "name": "Targoviste",
        "nameascii": "Targoviste",
        "sov0name": "Romania",
        "adm0name": "Romania",
        "adm1name": "Dâmbovita",
        "note": null,
        "timezone": null
      },
      "geometry": {
        "type": "Point",
        "coordinates": [
          25.459002501984173,
          44.93799912854496
        ]
      }
    },
    {
      "type": "Feature",
      "properties": {
        "featureclass": "Admin-1 capital",
        "name": "Giurgiu",
        "nameascii": "Giurgiu",
        "sov0name": "Romania",
        "adm0name": "Romania",
        "adm1name": "Giurgiu",
        "note": null,
        "timezone": null
      },
      "geometry": {
        "type": "Point",
        "coordinates": [
          25.83999950218447,
          43.92999910617101
        ]
      }
    },
    {
      "type": "Feature",
      "properties": {
        "featureclass": "Admin-1 capital",
        "name": "Slobozia",
        "nameascii": "Slobozia",
        "sov0name": "Romania",
        "adm0name": "Romania",
        "adm1name": "Ialomita",
        "note": null,
        "timezone": null
      },
      "geometry": {
        "type": "Point",
        "coordinates": [
          27.381996593165866,
          44.56999805655312
        ]
      }
    },
    {
      "type": "Feature",
      "properties": {
        "featureclass": "Admin-1 capital",
        "name": "Dar'a",
        "nameascii": "Dar'a",
        "sov0name": "Syria",
        "adm0name": "Syria",
        "adm1name": "Dar`a",
        "note": null,
        "timezone": null
      },
      "geometry": {
        "type": "Point",
        "coordinates": [
          36.10500350660266,
          32.625000137740756
        ]
      }
    },
    {
      "type": "Feature",
      "properties": {
        "featureclass": "Admin-1 capital",
        "name": "Delemont",
        "nameascii": "Delemont",
        "sov0name": "Switzerland",
        "adm0name": "Switzerland",
        "adm1name": "Jura",
        "note": null,
        "timezone": null
      },
      "geometry": {
        "type": "Point",
        "coordinates": [
          7.344999487643292,
          47.36999712580081
        ]
      }
    },
    {
      "type": "Feature",
      "properties": {
        "featureclass": "Admin-1 capital",
        "name": "Neuchatel",
        "nameascii": "Neuchatel",
        "sov0name": "Switzerland",
        "adm0name": "Switzerland",
        "adm1name": "Neuchâtel",
        "note": null,
        "timezone": null
      },
      "geometry": {
        "type": "Point",
        "coordinates": [
          6.922998615397546,
          46.99899914474071
        ]
      }
    },
    {
      "type": "Feature",
      "properties": {
        "featureclass": "Admin-1 capital",
        "name": "Aarau",
        "nameascii": "Aarau",
        "sov0name": "Switzerland",
        "adm0name": "Switzerland",
        "adm1name": "Aargau",
        "note": null,
        "timezone": null
      },
      "geometry": {
        "type": "Point",
        "coordinates": [
          8.034003610477498,
          47.390004100198894
        ]
      }
    },
    {
      "type": "Feature",
      "properties": {
        "featureclass": "Admin-1 capital",
        "name": "Stans",
        "nameascii": "Stans",
        "sov0name": "Switzerland",
        "adm0name": "Switzerland",
        "adm1name": "Nidwalden",
        "note": null,
        "timezone": null
      },
      "geometry": {
        "type": "Point",
        "coordinates": [
          8.383302546723826,
          46.95000307389006
        ]
      }
    },
    {
      "type": "Feature",
      "properties": {
        "featureclass": "Admin-1 capital",
        "name": "Sion",
        "nameascii": "Sion",
        "sov0name": "Switzerland",
        "adm0name": "Switzerland",
        "adm1name": "Valais",
        "note": null,
        "timezone": null
      },
      "geometry": {
        "type": "Point",
        "coordinates": [
          7.353999481933045,
          46.239003028557875
        ]
      }
    },
    {
      "type": "Feature",
      "properties": {
        "featureclass": "Admin-1 capital",
        "name": "Herisau",
        "nameascii": "Herisau",
        "sov0name": "Switzerland",
        "adm0name": "Switzerland",
        "adm1name": "Appenzell Ausserrhoden",
        "note": null,
        "timezone": null
      },
      "geometry": {
        "type": "Point",
        "coordinates": [
          9.283302472138416,
          47.38329903329509
        ]
      }
    },
    {
      "type": "Feature",
      "properties": {
        "featureclass": "Admin-1 capital",
        "name": "Saint Gallen",
        "nameascii": "Saint Gallen",
        "sov0name": "Switzerland",
        "adm0name": "Switzerland",
        "adm1name": "Sankt Gallen",
        "note": null,
        "timezone": null
      },
      "geometry": {
        "type": "Point",
        "coordinates": [
          9.361998557241634,
          47.42299806668797
        ]
      }
    },
    {
      "type": "Feature",
      "properties": {
        "featureclass": "Admin-1 capital",
        "name": "Bellinzona",
        "nameascii": "Bellinzona",
        "sov0name": "Switzerland",
        "adm0name": "Switzerland",
        "adm1name": "Ticino",
        "note": null,
        "timezone": null
      },
      "geometry": {
        "type": "Point",
        "coordinates": [
          9.019998608751848,
          46.19700013166164
        ]
      }
    },
    {
      "type": "Feature",
      "properties": {
        "featureclass": "Admin-1 capital",
        "name": "Glarus",
        "nameascii": "Glarus",
        "sov0name": "Switzerland",
        "adm0name": "Switzerland",
        "adm1name": "Glarus",
        "note": null,
        "timezone": null
      },
      "geometry": {
        "type": "Point",
        "coordinates": [
          9.066699586732966,
          47.050002035926695
        ]
      }
    },
    {
      "type": "Feature",
      "properties": {
        "featureclass": "Admin-1 capital",
        "name": "Schaffhausen",
        "nameascii": "Schaffhausen",
        "sov0name": "Switzerland",
        "adm0name": "Switzerland",
        "adm1name": "Schaffhausen",
        "note": null,
        "timezone": null
      },
      "geometry": {
        "type": "Point",
        "coordinates": [
          8.632998523330116,
          47.70600309067038
        ]
      }
    },
    {
      "type": "Feature",
      "properties": {
        "featureclass": "Admin-1 capital",
        "name": "Schwyz",
        "nameascii": "Schwyz",
        "sov0name": "Switzerland",
        "adm0name": "Switzerland",
        "adm1name": "Schwyz",
        "note": null,
        "timezone": null
      },
      "geometry": {
        "type": "Point",
        "coordinates": [
          8.648001602841134,
          47.0199960423883
        ]
      }
    },
    {
      "type": "Feature",
      "properties": {
        "featureclass": "Admin-1 capital",
        "name": "Frauenfeld",
        "nameascii": "Frauenfeld",
        "sov0name": "Switzerland",
        "adm0name": "Switzerland",
        "adm1name": "Thurgau",
        "note": null,
        "timezone": null
      },
      "geometry": {
        "type": "Point",
        "coordinates": [
          9.108000501947004,
          47.56799716565638
        ]
      }
    },
    {
      "type": "Feature",
      "properties": {
        "featureclass": "Admin-1 capital",
        "name": "Altdorf",
        "nameascii": "Altdorf",
        "sov0name": "Switzerland",
        "adm0name": "Switzerland",
        "adm1name": "Uri",
        "note": null,
        "timezone": null
      },
      "geometry": {
        "type": "Point",
        "coordinates": [
          8.638002583700825,
          46.87900214442362
        ]
      }
    },
    {
      "type": "Feature",
      "properties": {
        "featureclass": "Admin-1 capital",
        "name": "Zug",
        "nameascii": "Zug",
        "sov0name": "Switzerland",
        "adm0name": "Switzerland",
        "adm1name": "Zug",
        "note": null,
        "timezone": null
      },
      "geometry": {
        "type": "Point",
        "coordinates": [
          8.487000564994787,
          47.178999030533475
        ]
      }
    },
    {
      "type": "Feature",
      "properties": {
        "featureclass": "Admin-1 capital",
        "name": "Falun",
        "nameascii": "Falun",
        "sov0name": "Sweden",
        "adm0name": "Sweden",
        "adm1name": "Dalarna",
        "note": null,
        "timezone": null
      },
      "geometry": {
        "type": "Point",
        "coordinates": [
          15.647004553684724,
          60.613002035558
        ]
      }
    },
    {
      "type": "Feature",
      "properties": {
        "featureclass": "Admin-1 capital",
        "name": "Nykoping",
        "nameascii": "Nykoping",
        "sov0name": "Sweden",
        "adm0name": "Sweden",
        "adm1name": "Södermanland",
        "note": null,
        "timezone": null
      },
      "geometry": {
        "type": "Point",
        "coordinates": [
          17.015004513127508,
          58.76399717776047
        ]
      }
    },
    {
      "type": "Feature",
      "properties": {
        "featureclass": "Admin-1 capital",
        "name": "Harnosand",
        "nameascii": "Harnosand",
        "sov0name": "Sweden",
        "adm0name": "Sweden",
        "adm1name": "Västernorrland",
        "note": null,
        "timezone": null
      },
      "geometry": {
        "type": "Point",
        "coordinates": [
          17.934003617455744,
          62.633997039075155
        ]
      }
    },
    {
      "type": "Feature",
      "properties": {
        "featureclass": "Admin-1 capital",
        "name": "Karlskrona",
        "nameascii": "Karlskrona",
        "sov0name": "Sweden",
        "adm0name": "Sweden",
        "adm1name": "Blekinge",
        "note": null,
        "timezone": null
      },
      "geometry": {
        "type": "Point",
        "coordinates": [
          15.296004610905186,
          56.20300218589796
        ]
      }
    },
    {
      "type": "Feature",
      "properties": {
        "featureclass": "Admin-1 capital",
        "name": "Alba Lulia",
        "nameascii": "Alba Lulia",
        "sov0name": "Romania",
        "adm0name": "Romania",
        "adm1name": "Alba",
        "note": null,
        "timezone": null
      },
      "geometry": {
        "type": "Point",
        "coordinates": [
          23.58000058676606,
          46.077003131344384
        ]
      }
    },
    {
      "type": "Feature",
      "properties": {
        "featureclass": "Admin-1 capital",
        "name": "Bistrita",
        "nameascii": "Bistrita",
        "sov0name": "Romania",
        "adm0name": "Romania",
        "adm1name": "Bistrita-Nasaud",
        "note": null,
        "timezone": null
      },
      "geometry": {
        "type": "Point",
        "coordinates": [
          24.51300358027089,
          47.138004094605435
        ]
      }
    },
    {
      "type": "Feature",
      "properties": {
        "featureclass": "Admin-1 capital",
        "name": "Deva",
        "nameascii": "Deva",
        "sov0name": "Romania",
        "adm0name": "Romania",
        "adm1name": "Hunedoara",
        "note": null,
        "timezone": null
      },
      "geometry": {
        "type": "Point",
        "coordinates": [
          22.916673570429055,
          45.88332304241237
        ]
      }
    },
    {
      "type": "Feature",
      "properties": {
        "featureclass": "Admin-1 capital",
        "name": "Zalau",
        "nameascii": "Zalau",
        "sov0name": "Romania",
        "adm0name": "Romania",
        "adm1name": "Salaj",
        "note": null,
        "timezone": null
      },
      "geometry": {
        "type": "Point",
        "coordinates": [
          23.063004481886935,
          47.17500309661466
        ]
      }
    },
    {
      "type": "Feature",
      "properties": {
        "featureclass": "Admin-1 capital",
        "name": "Satu Mare",
        "nameascii": "Satu Mare",
        "sov0name": "Romania",
        "adm0name": "Romania",
        "adm1name": "Satu Mare",
        "note": null,
        "timezone": null
      },
      "geometry": {
        "type": "Point",
        "coordinates": [
          22.88500248031181,
          47.791998163530366
        ]
      }
    },
    {
      "type": "Feature",
      "properties": {
        "featureclass": "Admin-1 capital",
        "name": "Rimnicu Vilcea",
        "nameascii": "Rimnicu Vilcea",
        "sov0name": "Romania",
        "adm0name": "Romania",
        "adm1name": "Vâlcea",
        "note": null,
        "timezone": null
      },
      "geometry": {
        "type": "Point",
        "coordinates": [
          24.382998624695688,
          45.109998044898646
        ]
      }
    },
    {
      "type": "Feature",
      "properties": {
        "featureclass": "Admin-1 capital",
        "name": "Sfintu-Gheorghe",
        "nameascii": "Sfintu-Gheorghe",
        "sov0name": "Romania",
        "adm0name": "Romania",
        "adm1name": "Covasna",
        "note": null,
        "timezone": null
      },
      "geometry": {
        "type": "Point",
        "coordinates": [
          25.793001481034935,
          45.86799611138031
        ]
      }
    },
    {
      "type": "Feature",
      "properties": {
        "featureclass": "Admin-1 capital",
        "name": "Miercurea Cuic",
        "nameascii": "Miercurea-Cuic",
        "sov0name": "Romania",
        "adm0name": "Romania",
        "adm1name": "Harghita",
        "note": null,
        "timezone": null
      },
      "geometry": {
        "type": "Point",
        "coordinates": [
          25.524000511712984,
          46.3609980785763
        ]
      }
    },
    {
      "type": "Feature",
      "properties": {
        "featureclass": "Admin-1 capital",
        "name": "Piatra-Neamt",
        "nameascii": "Piatra-Neamt",
        "sov0name": "Romania",
        "adm0name": "Romania",
        "adm1name": "Neamt",
        "note": null,
        "timezone": null
      },
      "geometry": {
        "type": "Point",
        "coordinates": [
          26.38299656508184,
          46.94000405474975
        ]
      }
    },
    {
      "type": "Feature",
      "properties": {
        "featureclass": "Admin-1 capital",
        "name": "Braila",
        "nameascii": "Braila",
        "sov0name": "Romania",
        "adm0name": "Romania",
        "adm1name": "Braila",
        "note": null,
        "timezone": null
      },
      "geometry": {
        "type": "Point",
        "coordinates": [
          27.96900353877851,
          45.291996145876226
        ]
      }
    },
    {
      "type": "Feature",
      "properties": {
        "featureclass": "Admin-1 capital",
        "name": "Vaslui",
        "nameascii": "Vaslui",
        "sov0name": "Romania",
        "adm0name": "Romania",
        "adm1name": "Vaslui",
        "note": null,
        "timezone": null
      },
      "geometry": {
        "type": "Point",
        "coordinates": [
          27.73333859066895,
          46.6333290755727
        ]
      }
    },
    {
      "type": "Feature",
      "properties": {
        "featureclass": "Admin-1 capital",
        "name": "Salyan",
        "nameascii": "Sallyan",
        "sov0name": "Nepal",
        "adm0name": "Nepal",
        "adm1name": "Rapti",
        "note": null,
        "timezone": null
      },
      "geometry": {
        "type": "Point",
        "coordinates": [
          82.18330255361178,
          28.350000036941594
        ]
      }
    },
    {
      "type": "Feature",
      "properties": {
        "featureclass": "Admin-1 capital",
        "name": "Mae Hong Son",
        "nameascii": "Mae Hong Son",
        "sov0name": "Thailand",
        "adm0name": "Thailand",
        "adm1name": "Mae Hong Son",
        "note": null,
        "timezone": null
      },
      "geometry": {
        "type": "Point",
        "coordinates": [
          97.96899665285014,
          19.301004050010818
        ]
      }
    },
    {
      "type": "Feature",
      "properties": {
        "featureclass": "Admin-1 capital",
        "name": "Phangnga",
        "nameascii": "Phangnga",
        "sov0name": "Thailand",
        "adm0name": "Thailand",
        "adm1name": "Phangnga",
        "note": null,
        "timezone": null
      },
      "geometry": {
        "type": "Point",
        "coordinates": [
          98.53399857436312,
          8.451000085799024
        ]
      }
    },
    {
      "type": "Feature",
      "properties": {
        "featureclass": "Admin-1 capital",
        "name": "Ranong",
        "nameascii": "Ranong",
        "sov0name": "Thailand",
        "adm0name": "Thailand",
        "adm1name": "Ranong",
        "note": null,
        "timezone": null
      },
      "geometry": {
        "type": "Point",
        "coordinates": [
          98.63800257192008,
          9.962001094509105
        ]
      }
    },
    {
      "type": "Feature",
      "properties": {
        "featureclass": "Admin-1 capital",
        "name": "Krabi",
        "nameascii": "Krabi",
        "sov0name": "Thailand",
        "adm0name": "Thailand",
        "adm1name": "Krabi",
        "note": null,
        "timezone": null
      },
      "geometry": {
        "type": "Point",
        "coordinates": [
          98.9119986654951,
          8.052003097019451
        ]
      }
    },
    {
      "type": "Feature",
      "properties": {
        "featureclass": "Admin-1 capital",
        "name": "Phatthalung",
        "nameascii": "Phatthalung",
        "sov0name": "Thailand",
        "adm0name": "Thailand",
        "adm1name": "Phatthalung",
        "note": null,
        "timezone": null
      },
      "geometry": {
        "type": "Point",
        "coordinates": [
          100.08099956023182,
          7.614998979778875
        ]
      }
    },
    {
      "type": "Feature",
      "properties": {
        "featureclass": "Admin-1 capital",
        "name": "Satun",
        "nameascii": "Satun",
        "sov0name": "Thailand",
        "adm0name": "Thailand",
        "adm1name": "Satun",
        "note": null,
        "timezone": null
      },
      "geometry": {
        "type": "Point",
        "coordinates": [
          100.06669862788681,
          6.616701098860688
        ]
      }
    },
    {
      "type": "Feature",
      "properties": {
        "featureclass": "Admin-1 capital",
        "name": "Lamphun",
        "nameascii": "Lamphun",
        "sov0name": "Thailand",
        "adm0name": "Thailand",
        "adm1name": "Lamphun",
        "note": null,
        "timezone": null
      },
      "geometry": {
        "type": "Point",
        "coordinates": [
          99.07399856270865,
          18.503001136334092
        ]
      }
    },
    {
      "type": "Feature",
      "properties": {
        "featureclass": "Admin-1 capital",
        "name": "Kamphaeng Phet",
        "nameascii": "Kamphaeng Phet",
        "sov0name": "Thailand",
        "adm0name": "Thailand",
        "adm1name": "Kamphaeng Phet",
        "note": null,
        "timezone": null
      },
      "geometry": {
        "type": "Point",
        "coordinates": [
          99.5290026685285,
          16.472997036926074
        ]
      }
    },
    {
      "type": "Feature",
      "properties": {
        "featureclass": "Admin-1 capital",
        "name": "Phichit",
        "nameascii": "Phichit",
        "sov0name": "Thailand",
        "adm0name": "Thailand",
        "adm1name": "Phichit",
        "note": null,
        "timezone": null
      },
      "geometry": {
        "type": "Point",
        "coordinates": [
          100.34900167018702,
          16.439004045586273
        ]
      }
    },
    {
      "type": "Feature",
      "properties": {
        "featureclass": "Admin-1 capital",
        "name": "Phetchabun",
        "nameascii": "Phetchabun",
        "sov0name": "Thailand",
        "adm0name": "Thailand",
        "adm1name": "Phetchabun",
        "note": null,
        "timezone": null
      },
      "geometry": {
        "type": "Point",
        "coordinates": [
          101.15900165270511,
          16.418997071188187
        ]
      }
    },
    {
      "type": "Feature",
      "properties": {
        "featureclass": "Admin-1 capital",
        "name": "Supham Buri",
        "nameascii": "Supham Buri",
        "sov0name": "Thailand",
        "adm0name": "Thailand",
        "adm1name": "Suphan Buri",
        "note": null,
        "timezone": null
      },
      "geometry": {
        "type": "Point",
        "coordinates": [
          100.12899660623191,
          14.471001046838808
        ]
      }
    },
    {
      "type": "Feature",
      "properties": {
        "featureclass": "Admin-1 capital",
        "name": "Ang Thong",
        "nameascii": "Ang Thong",
        "sov0name": "Thailand",
        "adm0name": "Thailand",
        "adm1name": "Ang Thong",
        "note": null,
        "timezone": null
      },
      "geometry": {
        "type": "Point",
        "coordinates": [
          100.44999965707427,
          14.583303057002922
        ]
      }
    },
    {
      "type": "Feature",
      "properties": {
        "featureclass": "Admin-1 capital",
        "name": "Chainat",
        "nameascii": "Chainat",
        "sov0name": "Thailand",
        "adm0name": "Thailand",
        "adm1name": "Chai Nat",
        "note": null,
        "timezone": null
      },
      "geometry": {
        "type": "Point",
        "coordinates": [
          100.12599969716382,
          15.179004017619036
        ]
      }
    },
    {
      "type": "Feature",
      "properties": {
        "featureclass": "Admin-1 capital",
        "name": "Nakhon Nayok",
        "nameascii": "Nakhon Nayok",
        "sov0name": "Thailand",
        "adm0name": "Thailand",
        "adm1name": "Nakhon Nayok",
        "note": null,
        "timezone": null
      },
      "geometry": {
        "type": "Point",
        "coordinates": [
          101.2159986929949,
          14.200002027815458
        ]
      }
    },
    {
      "type": "Feature",
      "properties": {
        "featureclass": "Admin-1 capital",
        "name": "Sing Buri",
        "nameascii": "Sing Buri",
        "sov0name": "Thailand",
        "adm0name": "Thailand",
        "adm1name": "Sing Buri",
        "note": null,
        "timezone": null
      },
      "geometry": {
        "type": "Point",
        "coordinates": [
          100.40100358622362,
          14.886998999346929
        ]
      }
    },
    {
      "type": "Feature",
      "properties": {
        "featureclass": "Admin-1 capital",
        "name": "Nakhon Pathom",
        "nameascii": "Nakhon Pathom",
        "sov0name": "Thailand",
        "adm0name": "Thailand",
        "adm1name": "Nakhon Pathom",
        "note": null,
        "timezone": null
      },
      "geometry": {
        "type": "Point",
        "coordinates": [
          100.06399859650327,
          13.817997066647024
        ]
      }
    },
    {
      "type": "Feature",
      "properties": {
        "featureclass": "Admin-1 capital",
        "name": "Prachuap Khiri Khan",
        "nameascii": "Prachuap Khiri Khan",
        "sov0name": "Thailand",
        "adm0name": "Thailand",
        "adm1name": "Prachuap Khiri Khan",
        "note": null,
        "timezone": null
      },
      "geometry": {
        "type": "Point",
        "coordinates": [
          99.80000168755203,
          11.802996046750025
        ]
      }
    },
    {
      "type": "Feature",
      "properties": {
        "featureclass": "Admin-1 capital",
        "name": "Samut Sakhon",
        "nameascii": "Samut Sakhon",
        "sov0name": "Thailand",
        "adm0name": "Thailand",
        "adm1name": "Samut Sakhon",
        "note": null,
        "timezone": null
      },
      "geometry": {
        "type": "Point",
        "coordinates": [
          100.27400464131813,
          13.536000003632807
        ]
      }
    },
    {
      "type": "Feature",
      "properties": {
        "featureclass": "Admin-1 capital",
        "name": "Samut Songkhram",
        "nameascii": "Samut Songkhram",
        "sov0name": "Thailand",
        "adm0name": "Thailand",
        "adm1name": "Samut Songkhram",
        "note": null,
        "timezone": null
      },
      "geometry": {
        "type": "Point",
        "coordinates": [
          100.00099863647586,
          13.412996992646015
        ]
      }
    },
    {
      "type": "Feature",
      "properties": {
        "featureclass": "Admin-1 capital",
        "name": "Yasothon",
        "nameascii": "Yasothon",
        "sov0name": "Thailand",
        "adm0name": "Thailand",
        "adm1name": "Yasothon",
        "note": null,
        "timezone": null
      },
      "geometry": {
        "type": "Point",
        "coordinates": [
          104.15099767658705,
          15.787998115095832
        ]
      }
    },
    {
      "type": "Feature",
      "properties": {
        "featureclass": "Admin-1 capital",
        "name": "Chachoengsao",
        "nameascii": "Chachoengsao",
        "sov0name": "Thailand",
        "adm0name": "Thailand",
        "adm1name": "Chachoengsao",
        "note": null,
        "timezone": null
      },
      "geometry": {
        "type": "Point",
        "coordinates": [
          101.0760036543972,
          13.679001052899878
        ]
      }
    },
    {
      "type": "Feature",
      "properties": {
        "featureclass": "Admin-1 capital",
        "name": "Trat",
        "nameascii": "Trat",
        "sov0name": "Thailand",
        "adm0name": "Thailand",
        "adm1name": "Trat",
        "note": null,
        "timezone": null
      },
      "geometry": {
        "type": "Point",
        "coordinates": [
          102.50900162356879,
          12.237003089438701
        ]
      }
    },
    {
      "type": "Feature",
      "properties": {
        "featureclass": "Admin-1 capital",
        "name": "Kalasin",
        "nameascii": "Kalasin",
        "sov0name": "Thailand",
        "adm0name": "Thailand",
        "adm1name": "Kalasin",
        "note": null,
        "timezone": null
      },
      "geometry": {
        "type": "Point",
        "coordinates": [
          103.50900067650377,
          16.42799706547794
        ]
      }
    },
    {
      "type": "Feature",
      "properties": {
        "featureclass": "Admin-1 capital",
        "name": "Maha Sarakham",
        "nameascii": "Maha Sarakham",
        "sov0name": "Thailand",
        "adm0name": "Thailand",
        "adm1name": "Maha Sarakham",
        "note": null,
        "timezone": null
      },
      "geometry": {
        "type": "Point",
        "coordinates": [
          103.29800454295582,
          16.183998029323504
        ]
      }
    },
    {
      "type": "Feature",
      "properties": {
        "featureclass": "Admin-1 capital",
        "name": "Roi Et",
        "nameascii": "Roi Et",
        "sov0name": "Thailand",
        "adm0name": "Thailand",
        "adm1name": "Roi Et",
        "note": null,
        "timezone": null
      },
      "geometry": {
        "type": "Point",
        "coordinates": [
          103.65499863483916,
          16.050995999196516
        ]
      }
    },
    {
      "type": "Feature",
      "properties": {
        "featureclass": "Admin-1 capital",
        "name": "Pattani",
        "nameascii": "Pattani",
        "sov0name": "Thailand",
        "adm0name": "Thailand",
        "adm1name": "Pattani",
        "note": null,
        "timezone": null
      },
      "geometry": {
        "type": "Point",
        "coordinates": [
          101.25000062045217,
          6.864003023369264
        ]
      }
    },
    {
      "type": "Feature",
      "properties": {
        "featureclass": "Admin-1 capital",
        "name": "Piggs Peak",
        "nameascii": "Piggs Peak",
        "sov0name": "Swaziland",
        "adm0name": "Swaziland",
        "adm1name": "Hhohho",
        "note": null,
        "timezone": null
      },
      "geometry": {
        "type": "Point",
        "coordinates": [
          31.247001495710947,
          -25.961003987691868
        ]
      }
    },
    {
      "type": "Feature",
      "properties": {
        "featureclass": "Admin-1 capital",
        "name": "Siteki",
        "nameascii": "Siteki",
        "sov0name": "Swaziland",
        "adm0name": "Swaziland",
        "adm1name": "Lubombo",
        "note": null,
        "timezone": null
      },
      "geometry": {
        "type": "Point",
        "coordinates": [
          31.951998621305506,
          -26.454996043620838
        ]
      }
    },
    {
      "type": "Feature",
      "properties": {
        "featureclass": "Admin-1 capital",
        "name": "Manzini",
        "nameascii": "Manzini",
        "sov0name": "Swaziland",
        "adm0name": "Swaziland",
        "adm1name": "Manzini",
        "note": null,
        "timezone": null
      },
      "geometry": {
        "type": "Point",
        "coordinates": [
          31.388004495277073,
          -26.495001056299657
        ]
      }
    },
    {
      "type": "Feature",
      "properties": {
        "featureclass": "Admin-1 capital",
        "name": "Hlatikulu",
        "nameascii": "Hlatikulu",
        "sov0name": "Swaziland",
        "adm0name": "Swaziland",
        "adm1name": "Shiselweni",
        "note": null,
        "timezone": null
      },
      "geometry": {
        "type": "Point",
        "coordinates": [
          31.416696548561276,
          -26.999999926853548
        ]
      }
    },
    {
      "type": "Feature",
      "properties": {
        "featureclass": "Admin-1 capital",
        "name": "Somoto",
        "nameascii": "Somoto",
        "sov0name": "Nicaragua",
        "adm0name": "Nicaragua",
        "adm1name": "Madriz",
        "note": null,
        "timezone": null
      },
      "geometry": {
        "type": "Point",
        "coordinates": [
          -86.58299659251429,
          13.475997118157238
        ]
      }
    },
    {
      "type": "Feature",
      "properties": {
        "featureclass": "Admin-1 capital",
        "name": "Ocotal",
        "nameascii": "Ocotal",
        "sov0name": "Nicaragua",
        "adm0name": "Nicaragua",
        "adm1name": "Nueva Segovia",
        "note": null,
        "timezone": null
      },
      "geometry": {
        "type": "Point",
        "coordinates": [
          -86.47299861133735,
          13.629996045931591
        ]
      }
    },
    {
      "type": "Feature",
      "properties": {
        "featureclass": "Admin-1 capital",
        "name": "Aveiro",
        "nameascii": "Aveiro",
        "sov0name": "Portugal",
        "adm0name": "Portugal",
        "adm1name": "Aveiro",
        "note": null,
        "timezone": null
      },
      "geometry": {
        "type": "Point",
        "coordinates": [
          -8.650997534094358,
          40.64100310524765
        ]
      }
    },
    {
      "type": "Feature",
      "properties": {
        "featureclass": "Admin-1 capital",
        "name": "Leiria",
        "nameascii": "Leiria",
        "sov0name": "Portugal",
        "adm0name": "Portugal",
        "adm1name": "Leiria",
        "note": null,
        "timezone": null
      },
      "geometry": {
        "type": "Point",
        "coordinates": [
          -8.804996461868768,
          39.738996028530494
        ]
      }
    },
    {
      "type": "Feature",
      "properties": {
        "featureclass": "Admin-1 capital",
        "name": "Viana Do Castelo",
        "nameascii": "Viana Do Castelo",
        "sov0name": "Portugal",
        "adm0name": "Portugal",
        "adm1name": "Viana do Castelo",
        "note": null,
        "timezone": null
      },
      "geometry": {
        "type": "Point",
        "coordinates": [
          -8.844137484362761,
          41.696235142665046
        ]
      }
    },
    {
      "type": "Feature",
      "properties": {
        "featureclass": "Admin-1 capital",
        "name": "Merida",
        "nameascii": "Merida",
        "sov0name": "Kingdom of Spain",
        "adm0name": "Spain",
        "adm1name": "Extremadura",
        "note": null,
        "timezone": null
      },
      "geometry": {
        "type": "Point",
        "coordinates": [
          -6.337997512305094,
          38.912004018401376
        ]
      }
    },
    {
      "type": "Feature",
      "properties": {
        "featureclass": "Admin-1 capital",
        "name": "Beja",
        "nameascii": "Beja",
        "sov0name": "Portugal",
        "adm0name": "Portugal",
        "adm1name": "Beja",
        "note": null,
        "timezone": null
      },
      "geometry": {
        "type": "Point",
        "coordinates": [
          -7.863002410191882,
          38.014002142688014
        ]
      }
    },
    {
      "type": "Feature",
      "properties": {
        "featureclass": "Admin-1 capital",
        "name": "Evora",
        "nameascii": "Evora",
        "sov0name": "Portugal",
        "adm0name": "Portugal",
        "adm1name": "Évora",
        "note": null,
        "timezone": null
      },
      "geometry": {
        "type": "Point",
        "coordinates": [
          -7.905995561304906,
          38.5599961146537
        ]
      }
    },
    {
      "type": "Feature",
      "properties": {
        "featureclass": "Admin-1 capital",
        "name": "Portalegre",
        "nameascii": "Portalegre",
        "sov0name": "Portugal",
        "adm0name": "Portugal",
        "adm1name": "Portalegre",
        "note": null,
        "timezone": null
      },
      "geometry": {
        "type": "Point",
        "coordinates": [
          -7.423001549366745,
          39.290004109533356
        ]
      }
    },
    {
      "type": "Feature",
      "properties": {
        "featureclass": "Admin-1 capital",
        "name": "Santarem",
        "nameascii": "Santarem",
        "sov0name": "Portugal",
        "adm0name": "Portugal",
        "adm1name": "Santarém",
        "note": null,
        "timezone": null
      },
      "geometry": {
        "type": "Point",
        "coordinates": [
          -8.682002552483425,
          39.23100008342476
        ]
      }
    },
    {
      "type": "Feature",
      "properties": {
        "featureclass": "Admin-1 capital",
        "name": "Braganca",
        "nameascii": "Braganca",
        "sov0name": "Portugal",
        "adm0name": "Portugal",
        "adm1name": "Bragança",
        "note": null,
        "timezone": null
      },
      "geometry": {
        "type": "Point",
        "coordinates": [
          -6.755003425781467,
          41.80799701416538
        ]
      }
    },
    {
      "type": "Feature",
      "properties": {
        "featureclass": "Admin-1 capital",
        "name": "Castelo Branco",
        "nameascii": "Castelo Branco",
        "sov0name": "Portugal",
        "adm0name": "Portugal",
        "adm1name": "Castelo Branco",
        "note": null,
        "timezone": null
      },
      "geometry": {
        "type": "Point",
        "coordinates": [
          -7.487999559095442,
          39.810996148331355
        ]
      }
    },
    {
      "type": "Feature",
      "properties": {
        "featureclass": "Admin-1 capital",
        "name": "Guarda",
        "nameascii": "Guarda",
        "sov0name": "Portugal",
        "adm0name": "Portugal",
        "adm1name": "Guarda",
        "note": null,
        "timezone": null
      },
      "geometry": {
        "type": "Point",
        "coordinates": [
          -7.262000511520284,
          40.54100414321101
        ]
      }
    },
    {
      "type": "Feature",
      "properties": {
        "featureclass": "Admin-1 capital",
        "name": "Viseu",
        "nameascii": "Viseu",
        "sov0name": "Portugal",
        "adm0name": "Portugal",
        "adm1name": "Viseu",
        "note": null,
        "timezone": null
      },
      "geometry": {
        "type": "Point",
        "coordinates": [
          -7.910000431341302,
          40.656996108008
        ]
      }
    },
    {
      "type": "Feature",
      "properties": {
        "featureclass": "Admin-1 capital",
        "name": "Vila Real",
        "nameascii": "Vila Real",
        "sov0name": "Portugal",
        "adm0name": "Portugal",
        "adm1name": "Vila Real",
        "note": null,
        "timezone": null
      },
      "geometry": {
        "type": "Point",
        "coordinates": [
          -7.737002490137002,
          41.293998149321794
        ]
      }
    },
    {
      "type": "Feature",
      "properties": {
        "featureclass": "Admin-1 capital",
        "name": "Fatick",
        "nameascii": "Fatick",
        "sov0name": "Senegal",
        "adm0name": "Senegal",
        "adm1name": "Fatick",
        "note": null,
        "timezone": null
      },
      "geometry": {
        "type": "Point",
        "coordinates": [
          -16.415999520858463,
          14.344002101933313
        ]
      }
    },
    {
      "type": "Feature",
      "properties": {
        "featureclass": "Admin-1 capital",
        "name": "An Nabk",
        "nameascii": "An Nabk",
        "sov0name": "Saudi Arabia",
        "adm0name": "Saudi Arabia",
        "adm1name": "Al Jawf",
        "note": null,
        "timezone": null
      },
      "geometry": {
        "type": "Point",
        "coordinates": [
          37.333296534498515,
          31.333302045819607
        ]
      }
    },
    {
      "type": "Feature",
      "properties": {
        "featureclass": "Admin-1 capital",
        "name": "Assen",
        "nameascii": "Assen",
        "sov0name": "Kingdom of the Netherlands",
        "adm0name": "Netherlands",
        "adm1name": "Drenthe",
        "note": null,
        "timezone": null
      },
      "geometry": {
        "type": "Point",
        "coordinates": [
          6.550002584636275,
          53.0000010923506
        ]
      }
    },
    {
      "type": "Feature",
      "properties": {
        "featureclass": "Admin-1 capital",
        "name": "Arnhem",
        "nameascii": "Arnhem",
        "sov0name": "Kingdom of the Netherlands",
        "adm0name": "Netherlands",
        "adm1name": "Gelderland",
        "note": null,
        "timezone": null
      },
      "geometry": {
        "type": "Point",
        "coordinates": [
          5.922999562462564,
          51.98799603445673
        ]
      }
    },
    {
      "type": "Feature",
      "properties": {
        "featureclass": "Admin-1 capital",
        "name": "Maastricht",
        "nameascii": "Maastricht",
        "sov0name": "Kingdom of the Netherlands",
        "adm0name": "Netherlands",
        "adm1name": "Limburg",
        "note": null,
        "timezone": null
      },
      "geometry": {
        "type": "Point",
        "coordinates": [
          5.677002476606958,
          50.852997067177284
        ]
      }
    },
    {
      "type": "Feature",
      "properties": {
        "featureclass": "Admin-1 capital",
        "name": "Zwolle",
        "nameascii": "Zwolle",
        "sov0name": "Kingdom of the Netherlands",
        "adm0name": "Netherlands",
        "adm1name": "Overijssel",
        "note": null,
        "timezone": null
      },
      "geometry": {
        "type": "Point",
        "coordinates": [
          6.096996528517536,
          52.52400008888333
        ]
      }
    },
    {
      "type": "Feature",
      "properties": {
        "featureclass": "Admin-1 capital",
        "name": "Middelburg",
        "nameascii": "Middelburg",
        "sov0name": "Kingdom of the Netherlands",
        "adm0name": "Netherlands",
        "adm1name": "Zeeland",
        "note": null,
        "timezone": null
      },
      "geometry": {
        "type": "Point",
        "coordinates": [
          3.609999540673243,
          51.50199617733273
        ]
      }
    },
    {
      "type": "Feature",
      "properties": {
        "featureclass": "Admin-1 capital",
        "name": "'s-Hertogenbosch",
        "nameascii": "'s-Hertogenbosch",
        "sov0name": "Kingdom of the Netherlands",
        "adm0name": "Netherlands",
        "adm1name": "Noord-Brabant",
        "note": null,
        "timezone": null
      },
      "geometry": {
        "type": "Point",
        "coordinates": [
          5.316660484814179,
          51.68333714269971
        ]
      }
    },
    {
      "type": "Feature",
      "properties": {
        "featureclass": "Admin-1 capital",
        "name": "Arendal",
        "nameascii": "Arendal",
        "sov0name": "Kingdom of Norway",
        "adm0name": "Norway",
        "adm1name": "Aust-Agder",
        "note": null,
        "timezone": null
      },
      "geometry": {
        "type": "Point",
        "coordinates": [
          8.766000553457104,
          58.464756055522116
        ]
      }
    },
    {
      "type": "Feature",
      "properties": {
        "featureclass": "Admin-1 capital",
        "name": "Vossavangen",
        "nameascii": "Vossavangen",
        "sov0name": "Kingdom of Norway",
        "adm0name": "Norway",
        "adm1name": "Hordaland",
        "note": null,
        "timezone": null
      },
      "geometry": {
        "type": "Point",
        "coordinates": [
          6.441003462826245,
          60.63000316477013
        ]
      }
    },
    {
      "type": "Feature",
      "properties": {
        "featureclass": "Admin-1 capital",
        "name": "Leikanger",
        "nameascii": "Hermansverk",
        "sov0name": "Kingdom of Norway",
        "adm0name": "Norway",
        "adm1name": "Sogn og Fjordane",
        "note": null,
        "timezone": null
      },
      "geometry": {
        "type": "Point",
        "coordinates": [
          6.849999470745956,
          61.183296124492415
        ]
      }
    },
    {
      "type": "Feature",
      "properties": {
        "featureclass": "Admin-1 capital",
        "name": "Bærum",
        "nameascii": "Baerum",
        "sov0name": "Kingdom of Norway",
        "adm0name": "Norway",
        "adm1name": "Akershus",
        "note": null,
        "timezone": null
      },
      "geometry": {
        "type": "Point",
        "coordinates": [
          11.34723651361196,
          59.91348605972365
        ]
      }
    },
    {
      "type": "Feature",
      "properties": {
        "featureclass": "Admin-1 capital",
        "name": "Hamar",
        "nameascii": "Hamar",
        "sov0name": "Kingdom of Norway",
        "adm0name": "Norway",
        "adm1name": "Hedmark",
        "note": null,
        "timezone": null
      },
      "geometry": {
        "type": "Point",
        "coordinates": [
          11.069001556106116,
          60.820002069703264
        ]
      }
    },
    {
      "type": "Feature",
      "properties": {
        "featureclass": "Admin-1 capital",
        "name": "Tønsberg",
        "nameascii": "Tonsberg",
        "sov0name": "Kingdom of Norway",
        "adm0name": "Norway",
        "adm1name": "Vestfold",
        "note": null,
        "timezone": null
      },
      "geometry": {
        "type": "Point",
        "coordinates": [
          10.4210014708014,
          59.26400108954488
        ]
      }
    },
    {
      "type": "Feature",
      "properties": {
        "featureclass": "Admin-1 capital",
        "name": "Baglung",
        "nameascii": "Baglung",
        "sov0name": "Nepal",
        "adm0name": "Nepal",
        "adm1name": "Dhawalagiri",
        "note": null,
        "timezone": null
      },
      "geometry": {
        "type": "Point",
        "coordinates": [
          83.58329762017695,
          28.26669605934768
        ]
      }
    },
    {
      "type": "Feature",
      "properties": {
        "featureclass": "Admin-1 capital",
        "name": "Jumla",
        "nameascii": "Jumla",
        "sov0name": "Nepal",
        "adm0name": "Nepal",
        "adm1name": "Karnali",
        "note": null,
        "timezone": null
      },
      "geometry": {
        "type": "Point",
        "coordinates": [
          82.21670162409868,
          29.25000012783977
        ]
      }
    },
    {
      "type": "Feature",
      "properties": {
        "featureclass": "Admin-1 capital",
        "name": "Bhairawa",
        "nameascii": "Bhairawa",
        "sov0name": "Nepal",
        "adm0name": "Nepal",
        "adm1name": "Lumbini",
        "note": null,
        "timezone": null
      },
      "geometry": {
        "type": "Point",
        "coordinates": [
          83.38329953061987,
          27.533304089120975
        ]
      }
    },
    {
      "type": "Feature",
      "properties": {
        "featureclass": "Admin-1 capital",
        "name": "Dandeldhura",
        "nameascii": "Dandeldhura",
        "sov0name": "Nepal",
        "adm0name": "Nepal",
        "adm1name": "Mahakali",
        "note": null,
        "timezone": null
      },
      "geometry": {
        "type": "Point",
        "coordinates": [
          80.60000454741635,
          29.300004159658783
        ]
      }
    },
    {
      "type": "Feature",
      "properties": {
        "featureclass": "Admin-1 capital",
        "name": "Dhangarhi",
        "nameascii": "Dhangarhi",
        "sov0name": "Nepal",
        "adm0name": "Nepal",
        "adm1name": "Achham",
        "note": null,
        "timezone": null
      },
      "geometry": {
        "type": "Point",
        "coordinates": [
          80.59300260282794,
          28.69499705998328
        ]
      }
    },
    {
      "type": "Feature",
      "properties": {
        "featureclass": "Admin-1 capital",
        "name": "Ramechhap",
        "nameascii": "Ramechhap",
        "sov0name": "Nepal",
        "adm0name": "Nepal",
        "adm1name": "Janakpur",
        "note": null,
        "timezone": null
      },
      "geometry": {
        "type": "Point",
        "coordinates": [
          86.08699852858143,
          27.325998075689824
        ]
      }
    },
    {
      "type": "Feature",
      "properties": {
        "featureclass": "Admin-1 capital",
        "name": "Bhimphedi",
        "nameascii": "Bhimphedi",
        "sov0name": "Nepal",
        "adm0name": "Nepal",
        "adm1name": "Narayani",
        "note": null,
        "timezone": null
      },
      "geometry": {
        "type": "Point",
        "coordinates": [
          85.13000156287723,
          27.550998098414254
        ]
      }
    },
    {
      "type": "Feature",
      "properties": {
        "featureclass": "Admin-1 capital",
        "name": "Rajbiraj",
        "nameascii": "Rajbiraj",
        "sov0name": "Nepal",
        "adm0name": "Nepal",
        "adm1name": "Sagarmatha",
        "note": null,
        "timezone": null
      },
      "geometry": {
        "type": "Point",
        "coordinates": [
          86.73329760735317,
          26.533296100068526
        ]
      }
    },
    {
      "type": "Feature",
      "properties": {
        "featureclass": "Admin-1 capital",
        "name": "Ilam",
        "nameascii": "Ilam",
        "sov0name": "Nepal",
        "adm0name": "Nepal",
        "adm1name": "Mechi",
        "note": null,
        "timezone": null
      },
      "geometry": {
        "type": "Point",
        "coordinates": [
          87.92600453272223,
          26.908002073480247
        ]
      }
    },
    {
      "type": "Feature",
      "properties": {
        "featureclass": "Admin-1 capital",
        "name": "Wabag",
        "nameascii": "Wabag",
        "sov0name": "Papua New Guinea",
        "adm0name": "Papua New Guinea",
        "adm1name": "Enga",
        "note": null,
        "timezone": null
      },
      "geometry": {
        "type": "Point",
        "coordinates": [
          143.71800373801102,
          -5.490000004964259
        ]
      }
    },
    {
      "type": "Feature",
      "properties": {
        "featureclass": "Admin-1 capital",
        "name": "Vanimo",
        "nameascii": "Vanimo",
        "sov0name": "Papua New Guinea",
        "adm0name": "Papua New Guinea",
        "adm1name": "Sandaun",
        "note": null,
        "timezone": null
      },
      "geometry": {
        "type": "Point",
        "coordinates": [
          141.30399662773323,
          -2.690000935716682
        ]
      }
    },
    {
      "type": "Feature",
      "properties": {
        "featureclass": "Admin-1 capital",
        "name": "Kundiawa",
        "nameascii": "Kundiawa",
        "sov0name": "Papua New Guinea",
        "adm0name": "Papua New Guinea",
        "adm1name": "Chimbu",
        "note": null,
        "timezone": null
      },
      "geometry": {
        "type": "Point",
        "coordinates": [
          144.9600127135168,
          -6.022997883237622
        ]
      }
    },
    {
      "type": "Feature",
      "properties": {
        "featureclass": "Admin-1 capital",
        "name": "Kerema",
        "nameascii": "Kerema",
        "sov0name": "Papua New Guinea",
        "adm0name": "Papua New Guinea",
        "adm1name": "Gulf",
        "note": null,
        "timezone": null
      },
      "geometry": {
        "type": "Point",
        "coordinates": [
          145.83799867871426,
          -7.927001897107175
        ]
      }
    },
    {
      "type": "Feature",
      "properties": {
        "featureclass": "Admin-1 capital",
        "name": "Arawa",
        "nameascii": "Arawa",
        "sov0name": "Papua New Guinea",
        "adm0name": "Papua New Guinea",
        "adm1name": "North Solomons",
        "note": null,
        "timezone": null
      },
      "geometry": {
        "type": "Point",
        "coordinates": [
          155.56599066773765,
          -6.228000033165301
        ]
      }
    },
    {
      "type": "Feature",
      "properties": {
        "featureclass": "Admin-1 capital",
        "name": "Lorengau",
        "nameascii": "Lorengau",
        "sov0name": "Papua New Guinea",
        "adm0name": "Papua New Guinea",
        "adm1name": "Manus",
        "note": null,
        "timezone": null
      },
      "geometry": {
        "type": "Point",
        "coordinates": [
          147.27999664217543,
          -2.032001996755184
        ]
      }
    },
    {
      "type": "Feature",
      "properties": {
        "featureclass": "Admin-1 capital",
        "name": "Kimbe",
        "nameascii": "Kimbe",
        "sov0name": "Papua New Guinea",
        "adm0name": "Papua New Guinea",
        "adm1name": "West New Britain",
        "note": null,
        "timezone": null
      },
      "geometry": {
        "type": "Point",
        "coordinates": [
          150.14301370916962,
          -5.550002890439828
        ]
      }
    },
    {
      "type": "Feature",
      "properties": {
        "featureclass": "Admin-1 capital",
        "name": "Dubasari",
        "nameascii": "Dubasari",
        "sov0name": "Moldova",
        "adm0name": "Moldova",
        "adm1name": "Transnistria",
        "note": null,
        "timezone": null
      },
      "geometry": {
        "type": "Point",
        "coordinates": [
          29.160833300000036,
          47.26305560000014
        ]
      }
    },
    {
      "type": "Feature",
      "properties": {
        "featureclass": "Admin-1 capital",
        "name": "Qacha's Nek",
        "nameascii": "Qacha's Nek",
        "sov0name": "South Africa",
        "adm0name": "South Africa",
        "adm1name": "Eastern Cape",
        "note": null,
        "timezone": null
      },
      "geometry": {
        "type": "Point",
        "coordinates": [
          28.701999506608843,
          -30.117266915271443
        ]
      }
    },
    {
      "type": "Feature",
      "properties": {
        "featureclass": "Admin-1 capital",
        "name": "Hudur",
        "nameascii": "Xuddur",
        "sov0name": "Somalia",
        "adm0name": "Somalia",
        "adm1name": "Bakool",
        "note": null,
        "timezone": null
      },
      "geometry": {
        "type": "Point",
        "coordinates": [
          43.86670260501256,
          4.183298972756461
        ]
      }
    },
    {
      "type": "Feature",
      "properties": {
        "featureclass": "Admin-1 capital",
        "name": "Garbahaarey",
        "nameascii": "Garbahaarey",
        "sov0name": "Somalia",
        "adm0name": "Somalia",
        "adm1name": "Gedo",
        "note": null,
        "timezone": null
      },
      "geometry": {
        "type": "Point",
        "coordinates": [
          42.227001644864,
          3.3270031162549
        ]
      }
    },
    {
      "type": "Feature",
      "properties": {
        "featureclass": "Admin-1 capital",
        "name": "Bu'aale",
        "nameascii": "Bu'aale",
        "sov0name": "Somalia",
        "adm0name": "Somalia",
        "adm1name": "Jubbada Dhexe",
        "note": null,
        "timezone": null
      },
      "geometry": {
        "type": "Point",
        "coordinates": [
          42.58330252569874,
          1.083303017399032
        ]
      }
    },
    {
      "type": "Feature",
      "properties": {
        "featureclass": "Admin-1 capital",
        "name": "Dhuusa Mareeb",
        "nameascii": "Dhuusa Mareeb",
        "sov0name": "Somalia",
        "adm0name": "Somalia",
        "adm1name": "Galguduud",
        "note": null,
        "timezone": null
      },
      "geometry": {
        "type": "Point",
        "coordinates": [
          46.508004499917206,
          5.741999984298388
        ]
      }
    },